{
  "lat": 48.7318664,
  "lng": 21.2431019,
  "radius_m": 2000,
  "places": [
    {
      "distance_m": 98,
      "name": "FRESH Plus Merk\u00far",
      "lat": 48.730989199999996,
      "lng": 21.2429097,
      "place_id": "ChIJc32bxVjgPkcR30tW3CnAzsM"
    },
    {
      "distance_m": 1017,
      "name": "BILLA",
      "lat": 48.739111699999995,
      "lng": 21.251584299999998,
      "place_id": "ChIJ44eINyrhPkcR9W9v_x2OGqE"
    },
    {
      "distance_m": 1175,
      "name": "Lidl",
      "lat": 48.725359999999995,
      "lng": 21.25573,
      "place_id": "ChIJSet7vUThPkcRcbKDMOoygzs"
    },
    {
      "distance_m": 1286,
      "name": "KLAS Potraviny - \u010c\u00ed\u017eik",
      "lat": 48.732429599999996,
      "lng": 21.2606204,
      "place_id": "ChIJT56rKorgPkcR0Byk-iBKFuw"
    },
    {
      "distance_m": 1855,
      "name": "Kaufland",
      "lat": 48.7441872,
      "lng": 21.2601698,
      "place_id": "ChIJ43VWNADhPkcRmS9nHIzPuHk"
    },
    {
      "distance_m": 1949,
      "name": "Tesco Hypermarket Ko\u0161ice Trolejbusov\u00e1",
      "lat": 48.7411647,
      "lng": 21.265636399999998,
      "place_id": "ChIJJ4mqXZLgPkcRj76MVTFG4hY"
    }
  ],
  "side_bar": {
    "grocery_list": [
      "Chicken Breast Fillets \u2014 200 g from Lidl",
      "Long rice \u2014 150 g from Lidl",
      "Broccoli \u2014 100 g from Lidl",
      "Olive oil \u2014 20 ml from Lidl",
      "Greek yogurt \u2014 150 g from Tesco",
      "Almonds \u2014 30 g (not found, estimate \u20ac0.25 in-store)"
    ],
    "shops_to_visit": [
      "Lidl",
      "Tesco"
    ],
    "spent_total": 2.31,
    "saved_total": 0.0
  }
}