{"lat": 48.7318664, "lng": 21.2431019, "radius_m": 2000, "places": [{"distance_m": 98, "name": "FRESH Plus Merk\u00far", "lat": 48.730989199999996, "lng": 21.2429097, "place_id": "ChIJc32bxVjgPkcR30tW3CnAzsM", "directions_url": "https://www.google.com/maps/dir/?api=1&origin=48.7318664,21.2431019&destination_place_id=ChIJc32bxVjgPkcR30tW3CnAzsM&travelmode=driving"}, {"distance_m": 1017, "name": "BILLA", "lat": 48.739111699999995, "lng": 21.251584299999998, "place_id": "ChIJ44eINyrhPkcR9W9v_x2OGqE", "directions_url": "https://www.google.com/maps/dir/?api=1&origin=48.7318664,21.2431019&destination_place_id=ChIJ44eINyrhPkcR9W9v_x2OGqE&travelmode=driving"}, {"distance_m": 1175, "name": "Lidl", "lat": 48.725359999999995, "lng": 21.25573, "place_id": "ChIJSet7vUThPkcRcbKDMOoygzs", "directions_url": "https://www.google.com/maps/dir/?api=1&origin=48.7318664,21.2431019&destination_place_id=ChIJSet7vUThPkcRcbKDMOoygzs&travelmode=driving"}, {"distance_m": 1286, "name": "KLAS Potraviny - \u010c\u00ed\u017eik", "lat": 48.732429599999996, "lng": 21.2606204, "place_id": "ChIJT56rKorgPkcR0Byk-iBKFuw", "directions_url": "https://www.google.com/maps/dir/?api=1&origin=48.7318664,21.2431019&destination_place_id=ChIJT56rKorgPkcR0Byk-iBKFuw&travelmode=driving"}, {"distance_m": 1855, "name": "Kaufland", "lat": 48.7441872, "lng": 21.2601698, "place_id": "ChIJ43VWNADhPkcRmS9nHIzPuHk", "directions_url": "https://www.google.com/maps/dir/?api=1&origin=48.7318664,21.2431019&destination_place_id=ChIJ43VWNADhPkcRmS9nHIzPuHk&travelmode=driving"}, {"distance_m": 1949, "name": "Tesco Hypermarket Ko\u0161ice Trolejbusov\u00e1", "lat": 48.7411647, "lng": 21.265636399999998, "place_id": "ChIJJ4mqXZLgPkcRj76MVTFG4hY", "directions_url": "https://www.google.com/maps/dir/?api=1&origin=48.7318664,21.2431019&destination_place_id=ChIJJ4mqXZLgPkcRj76MVTFG4hY&travelmode=driving"}], "side_bar": null}